,City Name,Lat,Lng,Max Temp,Humidity,Cloudiness,Wind Speed,Country,Date
0,Punta Arenas,-53.15,-70.9167,21.31,93,75,0.38,CL,1622608235
1,Hermanus,-34.4187,19.2345,54.9,76,7,4.56,ZA,1622608235
2,Laguna,38.421,-121.4238,91.9,41,1,6.42,US,1622608236
3,Cape Town,-33.9258,18.4232,56.1,91,0,1.99,ZA,1622608236
4,Nemuro,43.3236,145.575,68.43,84,100,12.77,JP,1622608237
5,Ancud,-41.8697,-73.8203,44.22,77,99,1.9,CL,1622608066
6,Albany,42.6001,-73.9662,57.52,83,94,2.93,US,1622608001
7,Tooele,40.5308,-112.2983,70.2,36,1,1.28,US,1622608237
8,Atuona,-9.8,-139.0333,79.74,74,36,15.14,PF,1622608237
9,Patterson,37.4716,-121.1297,88.25,40,8,4.38,US,1622608238
10,Carnarvon,-24.8667,113.6333,69.87,60,89,12.66,AU,1622608238
11,Maţāy,28.419,30.7792,75.33,47,0,17.43,EG,1622608238
12,Port Hedland,-20.3167,118.5667,78.85,24,75,16.11,AU,1622608239
13,Coburg,50.2667,10.9667,59.43,81,97,1.01,DE,1622608239
14,Villamontes,-21.25,-63.5,62.01,79,60,5.41,BO,1622608239
15,Clovis,36.8252,-119.7029,93.09,32,20,1.99,US,1622608239
16,Rikitea,-23.1203,-134.9692,71.92,59,25,20.45,PF,1622608240
17,Salalah,17.0151,54.0924,84.29,74,40,3.44,OM,1622608240
18,Puerto Escondido,15.85,-97.0667,82.6,78,51,3.58,MX,1622608241
19,Yerbogachën,61.2767,108.0108,76.64,26,28,7.96,RU,1622608241
20,Alofi,-19.0595,-169.9187,71.49,94,90,5.75,NU,1622608241
21,Saint-Philippe,-21.3585,55.7679,76.55,81,66,12.53,RE,1622608242
22,New Norfolk,-42.7826,147.0587,60.3,44,99,3.76,AU,1622608242
23,Hilo,19.7297,-155.09,76.8,87,63,1.01,US,1622608105
24,Ushuaia,-54.8,-68.3,29.86,100,75,12.66,AR,1622607992
25,Kahului,20.8947,-156.47,80.96,75,47,11.99,US,1622608242
26,Hamilton,39.1834,-84.5333,65.35,91,100,3.44,US,1622608146
27,Ahipara,-35.1667,173.1667,58.68,73,85,10.11,NZ,1622608243
28,Tuktoyaktuk,69.4541,-133.0374,30.2,93,90,11.5,CA,1622608243
29,Busselton,-33.65,115.3333,62.1,64,97,2.89,AU,1622608243
30,Ubari,26.5921,12.7805,83.75,21,68,16.26,LY,1622608243
31,Pangnirtung,66.1451,-65.7125,33.1,98,100,3.11,CA,1622608244
32,Kapaa,22.0752,-159.319,82.38,76,16,1.99,US,1622608244
33,Vigrestad,58.5667,5.7,60.82,69,44,13.85,NO,1622608244
34,Bredasdorp,-34.5322,20.0403,43.92,93,31,4.05,ZA,1622608244
35,Hithadhoo,-0.6,73.0833,83.7,68,100,15.26,MV,1622608245
36,Jamestown,42.097,-79.2353,58.33,80,100,2.98,US,1622608002
37,Hashtrūd,37.4779,47.0508,72.57,20,0,6.49,IR,1622608245
38,Egvekinot,66.3167,-179.1667,35.11,57,6,1.23,RU,1622608245
39,George Town,5.4112,100.3354,89.55,70,20,6.91,MY,1622608208
40,Hobart,-42.8794,147.3294,60.66,52,0,3.0,AU,1622608092
41,Nanga Eboko,4.6833,12.3667,67.73,99,98,1.79,CM,1622608246
42,Kralendijk,12.15,-68.2667,80.58,78,40,12.66,BQ,1622607969
43,Port Augusta,-32.5,137.7667,71.74,39,24,12.77,AU,1622608247
44,Belyy Yar,53.6039,91.3903,69.69,32,0,5.12,RU,1622608247
45,Voznesen'ye,61.0106,35.4781,47.48,80,54,6.8,RU,1622608247
46,Yulara,-25.2406,130.9889,67.84,40,2,10.36,AU,1622608248
47,Soma,39.1855,27.6094,53.78,77,8,6.15,TR,1622608248
48,Thompson,55.7435,-97.8558,59.16,58,75,4.61,CA,1622608248
49,Korla,41.7597,86.1469,87.8,16,2,6.08,CN,1622608248
50,Kalmunai,7.4167,81.8167,88.27,62,13,3.33,LK,1622608249
51,Ulagan,50.6321,87.9563,77.5,26,28,1.32,RU,1622608249
52,Puerto Ayora,-0.7393,-90.3518,73.54,93,78,5.01,EC,1622608249
53,Mar del Plata,-38.0023,-57.5575,53.62,41,0,1.99,AR,1622608106
54,Rudnogorsk,57.2639,103.7519,79.39,22,3,1.92,RU,1622608250
55,Shimoda,34.6667,138.95,75.56,76,100,5.26,JP,1622608250
56,Mimoso do Sul,-21.0642,-41.3664,66.43,97,89,1.36,BR,1622608251
57,Yellowknife,62.456,-114.3525,55.33,100,75,3.44,CA,1622608070
58,Mataura,-46.1927,168.8643,49.48,97,78,1.72,NZ,1622608251
59,Barrow,71.2906,-156.7887,30.22,85,98,13.96,US,1622608203
60,Moose Factory,51.2585,-80.6094,39.18,81,90,4.61,CA,1622608252
61,Katsuura,35.1333,140.3,77.23,73,100,8.66,JP,1622608252
62,Simbahan,6.3032,120.5836,83.8,71,100,7.4,PH,1622608252
63,Diamantino,-14.4086,-56.4461,71.56,61,59,3.44,BR,1622608252
64,Seoul,37.5683,126.9778,85.39,40,0,5.79,KR,1622607953
65,Mayachnyy,52.6839,55.685,69.53,55,90,11.01,RU,1622608253
66,Mossamedes,-15.1961,12.1522,66.78,89,67,2.3,AO,1622608253
67,St. George's,12.0564,-61.7485,80.28,74,20,12.66,GD,1622608253
68,Airai,-8.9266,125.4092,75.9,48,16,3.38,TL,1622608254
69,Chongqing,29.5628,106.5528,77.32,88,40,3.74,CN,1622608254
70,Verkhoyansk,67.5447,133.385,72.79,25,76,8.37,RU,1622608255
71,Houma,29.5958,-90.7195,79.0,89,90,4.61,US,1622608255
72,Port Alfred,-33.5906,26.891,58.98,86,54,15.61,ZA,1622608255
73,Bubaque,11.2833,-15.8333,78.58,83,66,9.37,GW,1622608256
74,Sørland,67.667,12.6934,50.13,78,13,5.5,NO,1622608256
75,Havøysund,70.9963,24.6622,50.88,78,90,4.21,NO,1622608256
76,Qaanaaq,77.484,-69.3632,25.05,90,92,1.54,GL,1622608257
77,Ben Gardane,33.1378,11.2197,73.51,65,100,11.3,TN,1622608257
78,Avarua,-21.2078,-159.775,77.05,69,82,4.61,CK,1622608257
79,Khatanga,71.9667,102.5,36.03,84,100,20.4,RU,1622608258
80,Provideniya,64.3833,-173.3,41.11,60,40,13.42,RU,1622608258
81,Bousso,10.4795,16.7117,79.9,56,98,6.24,TD,1622608258
82,Bluff,-46.6,168.3333,49.8,81,38,17.36,NZ,1622608259
83,Yumen,40.2833,97.2,72.7,6,38,18.3,CN,1622608259
84,Peleduy,59.6289,112.7406,80.78,25,80,3.8,RU,1622608259
85,Mount Gambier,-37.8333,140.7667,62.51,59,75,12.66,AU,1622608260
86,Kapoeta,4.7717,33.5903,77.77,54,86,15.77,SS,1622608260
87,Manjakandriana,-18.9167,47.8,55.09,77,68,4.83,MG,1622608260
88,Chateaubelair,13.2833,-61.25,79.41,77,95,9.86,VC,1622608261
89,Marsá Maţrūḩ,31.3525,27.2453,69.98,59,2,13.33,EG,1622608261
90,Arraial do Cabo,-22.9661,-42.0278,71.62,82,20,8.14,BR,1622608261
91,Lagoa,39.05,-27.9833,58.78,62,98,12.1,PT,1622608261
92,Ribeira Grande,38.5167,-28.7,59.79,70,91,14.34,PT,1622608262
93,Sorong,-0.8833,131.25,80.65,82,99,7.11,ID,1622608228
94,Kendari,-3.945,122.4989,86.72,59,69,5.17,ID,1622608262
95,Butaritari,3.0707,172.7902,83.16,79,100,15.57,KI,1622608263
96,Aklavik,68.2191,-135.0107,32.83,98,100,5.53,CA,1622608263
97,Port Elizabeth,-33.918,25.5701,57.49,82,0,13.8,ZA,1622608264
98,Mahébourg,-20.4081,57.7,77.25,83,75,11.5,MU,1622608061
99,Ilulissat,69.2167,-51.1,32.02,86,59,3.44,GL,1622608052
100,Bintulu,3.1667,113.0333,91.81,66,40,3.0,MY,1622608264
101,Tasiilaq,65.6145,-37.6368,32.16,77,21,5.53,GL,1622608264
102,Bethel,41.3712,-73.414,62.24,82,100,2.48,US,1622608264
103,Zonguldak,41.25,31.8333,51.08,90,100,5.64,TR,1622608265
104,Pisco,-13.7,-76.2167,60.85,88,75,5.75,PE,1622608265
105,Popondetta,-8.7537,148.2534,82.51,63,100,4.38,PG,1622608265
106,Paphos,34.7667,32.4167,69.71,78,75,3.44,CY,1622608266
107,Bereket,39.2446,55.5154,92.3,22,0,5.08,TM,1622608266
108,Djambala,-2.5447,14.7533,66.74,97,99,4.61,CG,1622608266
109,Kaeo,-35.1,173.7833,60.33,75,35,6.38,NZ,1622608266
110,Saint-Augustin,51.226,-58.6502,49.86,87,77,6.98,CA,1622608246
111,Jumla,29.2747,82.1838,70.56,42,4,6.98,NP,1622608267
112,Castro,-24.7911,-50.0119,51.08,93,8,2.82,BR,1622608267
113,Altamont,42.2068,-121.7372,68.61,45,43,5.44,US,1622608267
114,Ocós,14.5094,-92.1933,82.0,88,83,6.15,GT,1622608268
115,Abatskiy,56.2875,70.4555,63.75,42,58,3.29,RU,1622608268
116,Nanton,50.3501,-113.7687,69.06,53,18,1.19,CA,1622608268
117,Portland,45.5234,-122.6762,82.78,53,1,1.01,US,1622607556
118,Lebrija,36.9208,-6.0753,60.58,87,0,4.54,ES,1622608269
119,Cherskiy,68.75,161.3,68.23,24,9,5.77,RU,1622608269
120,Kismayo,-0.3582,42.5454,80.82,70,97,15.46,SO,1622608270
121,Chokurdakh,70.6333,147.9167,72.21,20,21,6.26,RU,1622608270
122,Longyearbyen,78.2186,15.6401,36.86,93,100,5.32,SJ,1622608068
123,Tura,25.5198,90.2201,85.32,64,59,4.52,IN,1622608174
124,Cururupu,-1.8283,-44.8683,72.9,98,10,2.64,BR,1622608270
125,Aketi,2.7388,23.7833,70.07,93,99,2.3,CD,1622608270
126,Goderich,43.7501,-81.7165,57.52,72,37,10.36,CA,1622608271
127,Dikson,73.5069,80.5464,34.52,89,98,14.61,RU,1622608271
128,Tibiri,13.5627,7.0485,81.88,58,15,15.66,NE,1622608271
129,Sibolga,1.7427,98.7792,88.02,62,72,5.88,ID,1622608272
130,Suntar,62.1444,117.6319,77.94,34,88,3.13,RU,1622608272
131,Grindavik,63.8424,-22.4338,42.75,87,75,20.42,IS,1622608272
132,Letterkenny,54.95,-7.7333,48.33,96,95,1.95,IE,1622608273
133,Weyburn,49.6668,-103.8511,63.18,48,74,8.05,CA,1622608273
134,Vaini,-21.2,-175.2,73.92,69,100,10.71,TO,1622608273
135,Fort Nelson,58.8053,-122.7002,74.79,27,75,6.91,CA,1622608029
136,Port Lincoln,-34.7333,135.8667,66.81,55,64,10.56,AU,1622608021
137,Ugoofaaru,5.6667,73.0,83.44,65,46,14.34,MV,1622608274
138,Westport,41.1415,-73.3579,64.54,80,100,4.68,US,1622608254
139,Semey,50.4111,80.2275,80.82,44,40,6.71,KZ,1622608274
140,Lusaka,-15.4067,28.2871,56.34,85,16,5.91,ZM,1622608275
141,Acaraú,-2.8856,-40.12,76.32,86,9,9.1,BR,1622608275
142,Tamandaré,-8.7597,-35.1047,73.81,80,43,2.15,BR,1622608275
143,Harper,4.375,-7.7169,78.82,84,67,6.06,LR,1622608275
144,Smidovich,48.6,133.8167,67.98,50,66,13.33,RU,1622608276
145,Novoagansk,61.9449,76.6625,57.06,50,59,15.86,RU,1622608276
146,Port Hardy,50.6996,-127.4199,59.18,94,75,3.44,CA,1622607982
147,Cabo San Lucas,22.8909,-109.9124,84.4,54,89,11.18,MX,1622608276
148,Chui,-33.6971,-53.4616,56.59,75,100,10.36,UY,1622608277
149,Codrington,-38.2667,141.9667,64.62,49,98,6.87,AU,1622608277
150,Toppenish,46.3774,-120.3087,86.61,43,7,3.49,US,1622608277
151,‘Ewa Beach,21.3156,-158.0072,81.77,65,1,7.31,US,1622608277
152,Methóni,36.8197,21.7049,63.21,65,79,10.78,GR,1622608265
153,Fastovetskaya,45.9189,40.1589,62.4,92,100,11.1,RU,1622608278
154,Dhārchula,29.85,80.5333,81.77,44,3,6.78,IN,1622608278
155,Lavrentiya,65.5833,-171.0,33.53,66,17,16.6,RU,1622608279
156,Hong Kong,22.2855,114.1577,89.65,99,100,7.99,HK,1622608279
157,Whakatane,-37.9585,176.9854,60.78,74,46,3.31,NZ,1622608279
158,Kununurra,-15.7667,128.7333,91.38,35,49,4.61,AU,1622608280
159,Bandarbeyla,9.4942,50.8122,82.06,66,96,21.65,SO,1622608280
160,Kutum,14.2,24.6667,83.28,18,97,2.48,SD,1622608280
161,Kishtwār,33.3167,75.7667,74.03,43,46,3.96,IN,1622608280
162,Abastumani,41.7075,42.8457,49.12,55,18,0.89,GE,1622608281
163,Esperance,-33.8667,121.9,62.44,71,100,10.49,AU,1622608281
164,Pevek,69.7008,170.3133,37.18,73,5,5.66,RU,1622608281
165,Saint Anthony,45.0205,-93.218,66.31,65,1,1.01,US,1622608282
166,Saskylakh,71.9167,114.0833,62.6,60,99,15.35,RU,1622608282
167,Batemans Bay,-35.7167,150.1833,71.2,49,16,4.27,AU,1622608282
168,Yuxia,34.0615,108.6291,86.61,35,60,6.11,CN,1622608283
169,Bengkulu,-3.8004,102.2655,86.22,62,66,5.03,ID,1622608283
170,Atar,20.5169,-13.0499,87.66,33,76,6.46,MR,1622608283
171,Isangel,-19.55,169.2667,75.31,69,75,12.33,VU,1622608284
172,Panzhihua,26.5851,101.7128,93.15,35,50,5.91,CN,1622608284
173,Kruisfontein,-34.0033,24.7314,54.88,75,75,9.15,ZA,1622608284
174,Havre-St-Pierre,50.2334,-63.5986,43.16,93,1,8.05,CA,1622608059
175,Kamenka,51.3223,42.7678,56.89,76,91,14.58,RU,1622608285
176,Olafsvik,64.8945,-23.7142,44.29,77,92,18.86,IS,1622608285
177,Gizo Government Station,-8.103,156.8419,83.03,77,99,7.34,SB,1622608285
178,Saint Paul Harbor,57.79,-152.4072,45.14,91,99,7.54,US,1622608285
179,Kiryat Gat,31.61,34.7642,71.91,71,14,2.04,IL,1622608286
180,Sitia,35.2,26.0986,67.24,56,18,4.12,GR,1622608286
181,Paka,4.6374,103.4368,89.53,70,40,9.46,MY,1622608286
182,Salym,60.0625,71.4789,61.23,39,7,10.25,RU,1622608287
183,Rocha,-34.4833,-54.3333,54.59,89,100,11.99,UY,1622608287
184,Nikolskoye,59.7035,30.7861,53.4,53,14,3.4,RU,1622608287
185,Dudinka,69.4058,86.1778,40.39,81,97,20.87,RU,1622608288
186,Torbay,47.6666,-52.7314,47.57,93,90,24.16,CA,1622608288
187,Tighina,46.8306,29.4711,52.57,92,100,16.91,MD,1622608288
188,Los Arabos,22.7281,-80.7214,73.56,88,1,6.71,CU,1622608288
189,Gul'kevichi,45.3538,40.6946,62.98,89,100,10.49,RU,1622608289
190,Makakilo City,21.3469,-158.0858,80.35,65,1,5.48,US,1622608289
191,Vao,-22.6667,167.4833,69.93,55,12,11.65,NC,1622608289
192,Kapuskasing,49.4169,-82.4331,57.29,82,90,1.14,CA,1622608289
193,Souillac,-20.5167,57.5167,77.36,83,75,15.75,MU,1622608290
194,Clyde River,70.4692,-68.5914,26.83,93,90,4.61,CA,1622608214
195,Klaksvík,62.2266,-6.589,47.32,86,74,8.23,FO,1622608290
196,Neiafu,-18.65,-173.9833,77.65,78,68,4.61,TO,1622608290
197,Husavik,66.0449,-17.3389,42.71,64,2,15.66,IS,1622608291
198,Linxia Chengguanzhen,35.6003,103.2064,68.22,24,100,9.26,CN,1622608291
199,Canutama,-6.5339,-64.3831,74.59,70,67,1.88,BR,1622608291
200,Cam Ranh,11.9214,109.1591,91.36,62,20,7.99,VN,1622608291
201,Ketchikan,55.3422,-131.6461,53.58,99,100,3.33,US,1622608292
202,Ararat,39.8317,44.7049,77.34,20,0,1.25,AM,1622608292
203,Lastoursville,-0.8143,12.7287,71.83,98,100,1.43,GA,1622608292
204,College,64.8569,-147.8028,61.12,78,75,12.66,US,1622608293
205,Farah,32.5,62.5,95.29,8,0,6.44,AF,1622608293
206,East London,-33.0153,27.9116,58.14,88,40,14.97,ZA,1622608274
207,Qeshm,26.9581,56.2719,96.67,62,9,1.63,IR,1622608294
208,São Félix do Xingu,-6.6447,-51.995,68.59,86,23,1.68,BR,1622608294
209,Lewisville,33.0462,-96.9942,69.17,85,90,3.0,US,1622608235
210,Berbera,10.4396,45.0143,90.95,51,3,7.81,SO,1622608294
211,Leningradskiy,69.3833,178.4167,31.42,84,17,14.0,RU,1622608295
212,Tomatlán,19.9333,-105.25,78.17,78,96,1.86,MX,1622608295
213,Caravelas,-17.7125,-39.2481,70.32,87,48,0.74,BR,1622608295
214,Ponta do Sol,32.6667,-17.1,65.71,79,98,2.93,PT,1622608295
215,Beya,53.0533,90.9139,73.69,36,74,4.38,RU,1622608296
216,Kuril'sk,45.2333,147.8833,47.82,68,9,3.4,RU,1622608296
217,Samarai,-10.6167,150.6667,79.23,74,97,14.0,PG,1622608297
218,Sitka,57.0531,-135.33,52.93,94,100,2.42,US,1622608297
219,Olavarría,-36.8927,-60.3225,48.65,96,23,6.62,AR,1622608297
220,Cibitoke Province,-2.8833,29.25,62.17,81,97,2.98,BI,1622608297
221,Rus,38.0476,-3.4625,54.48,72,26,1.21,ES,1622608298
222,Plettenberg Bay,-34.0527,23.3716,54.73,75,54,6.11,ZA,1622608298
223,Khandyga,62.6667,135.6,66.72,43,53,2.06,RU,1622608298
224,Derzhavīnsk,51.1,66.3167,72.41,55,85,16.4,KZ,1622608298
225,George Town,5.4112,100.3354,89.55,70,20,7.0,MY,1622608299
226,Praia da Vitória,38.7333,-27.0667,59.25,67,40,10.76,PT,1622608299
227,Brae,60.3964,-1.353,44.51,85,0,8.12,GB,1622608299
228,Constitución,-35.3333,-72.4167,58.17,96,99,6.4,CL,1622608300
229,Namatanai,-3.6667,152.4333,81.55,78,96,3.91,PG,1622608300
230,Xixiang,35.1628,112.865,96.89,29,77,8.32,CN,1622608300
231,Flinders,-34.5833,150.8552,72.21,55,23,3.0,AU,1622608301
232,Nova Russas,-4.7067,-40.5631,70.93,85,48,1.81,BR,1622608301
233,Dinguiraye,11.3,-10.7167,74.64,75,93,2.84,GN,1622608302
234,Bonavista,48.6499,-53.1147,47.12,85,100,16.08,CA,1622608302
235,Severo-Kuril'sk,50.6789,156.125,42.48,82,78,4.05,RU,1622608302
236,Oktyabr'skiy,54.4815,53.471,52.3,89,100,8.88,RU,1622608302
237,Ouadda,8.0777,22.4007,67.3,95,100,3.09,CF,1622608303
238,Karratha,-20.7377,116.8463,78.58,25,91,18.92,AU,1622608303
239,Hofn,64.2539,-15.2082,46.09,80,97,12.86,IS,1622608303
240,Fortuna,40.5982,-124.1573,53.92,73,90,1.01,US,1622608303
241,Kavieng,-2.5744,150.7967,79.79,87,100,12.64,PG,1622608304
242,Iranduba,-3.2847,-60.1861,80.89,80,2,1.7,BR,1622608304
243,Ucluelet,48.9329,-125.5528,74.05,77,15,9.69,CA,1622608051
244,Nanortalik,60.1432,-45.2371,37.56,88,79,5.06,GL,1622608305
245,San Ramon,37.7799,-121.978,70.25,80,8,5.26,US,1622608248
246,Imbituba,-28.24,-48.6703,62.49,73,53,7.43,BR,1622608092
247,Havelock,34.8791,-76.9013,73.38,87,75,0.0,US,1622608306
248,San Patricio,28.017,-97.5169,77.85,84,71,4.18,US,1622608306
249,Mudon,16.2578,97.7164,88.84,66,69,8.93,MM,1622608306
250,Riyadh,24.6877,46.7219,93.25,13,0,0.0,SA,1622608128
251,Padang,-0.9492,100.3543,86.05,67,43,5.32,ID,1622608306
252,Iqaluit,63.7506,-68.5145,31.73,100,90,11.01,CA,1622608185
253,Upernavik,72.7868,-56.1549,24.46,93,29,7.18,GL,1622608307
254,Severodvinsk,64.5635,39.8302,50.11,73,99,9.95,RU,1622608307
255,Leh,34.1667,77.5833,49.44,55,83,3.8,IN,1622608307
256,Itarema,-2.9248,-39.9167,75.69,88,5,8.52,BR,1622608308
257,Bāglung,28.2719,83.5898,82.45,52,0,5.84,NP,1622608308
258,Bathsheba,13.2167,-59.5167,79.41,65,40,12.88,BB,1622608308
259,Tres Arroyos,-38.3739,-60.2798,47.39,78,40,9.06,AR,1622608308
260,Tangzhai,34.4328,116.5911,93.22,38,35,8.79,CN,1622608309
261,Nyurba,63.2842,118.3319,75.51,40,97,1.1,RU,1622608091
262,Zhangye,38.9342,100.4517,72.54,9,100,11.63,CN,1622608309
263,Dzaoudzi,-12.7887,45.2699,73.29,100,20,5.75,YT,1622608309
264,Kenai,60.5544,-151.2583,55.02,77,62,7.74,US,1622608309
265,Henties Bay,-22.116,14.2845,65.73,42,36,7.94,NA,1622608310
266,Okha,53.5739,142.9478,55.08,67,96,6.22,RU,1622608310
267,Pine Bluff,34.2284,-92.0032,71.53,87,90,4.0,US,1622608085
268,Kribi,2.95,9.9167,77.09,89,91,3.31,CM,1622608311
269,Simpang,-1.2667,104.0833,88.43,66,65,4.59,ID,1622608311
270,Stokmarknes,68.5646,14.9108,58.5,59,3,4.63,NO,1622608268
271,San Cristobal,7.7669,-72.225,64.99,96,100,2.77,VE,1622608312
272,Balaipungut,1.05,101.2833,88.21,60,41,4.85,ID,1622608312
273,Saint George,37.1041,-113.5841,87.35,13,84,1.01,US,1622608082
274,Mountain Home,43.133,-115.6912,73.11,18,1,5.88,US,1622608312
275,Dingle,10.9995,122.6711,79.0,83,100,16.37,PH,1622608312
276,Yar-Sale,66.8333,70.8333,39.11,59,81,16.69,RU,1622608313
277,Uray,60.1247,64.7758,49.96,47,43,9.48,RU,1622608313
278,Turkmenabat,39.0733,63.5786,94.98,20,0,11.5,TM,1622608313
279,Rio Grande,-32.035,-52.0986,58.48,70,100,5.84,BR,1622608314
280,Pinos Puente,37.2511,-3.7497,60.84,78,0,1.99,ES,1622608314
281,Mehamn,71.0357,27.8492,49.95,76,0,14.97,NO,1622608314
282,Mogadishu,2.0371,45.3438,80.47,69,75,13.8,SO,1622608315
283,Bambous Virieux,-20.3428,57.7575,77.22,83,75,16.71,MU,1622608315
284,Keetmanshoop,-26.5833,18.1333,43.72,61,0,6.91,NA,1622608316
285,Gouré,13.9835,10.2704,75.97,61,0,8.1,NE,1622608316
286,Mount Isa,-20.7333,139.5,85.77,28,40,8.05,AU,1622608316
287,Nishihara,26.1842,127.7558,83.86,77,75,9.06,JP,1622608087
288,Kaitangata,-46.2817,169.8464,53.92,68,83,4.5,NZ,1622608316
289,Geraldton,-28.7667,114.6,67.12,52,0,5.68,AU,1622608317
290,Shiringushi,53.8485,42.7676,55.26,72,100,11.34,RU,1622608317
291,Cotonou,6.3654,2.4183,78.78,94,40,1.14,BJ,1622608317
292,Honiara,-9.4333,159.95,85.44,71,87,7.0,SB,1622608111
293,Kholm,59.2667,32.85,53.98,61,100,4.61,RU,1622608318
294,Yeppoon,-23.1333,150.7333,67.78,81,83,10.27,AU,1622608318
295,Praxédis Guerrero,31.3667,-106.0167,77.81,47,51,12.41,MX,1622608318
296,Mattru,7.6244,-11.8332,73.83,93,92,2.15,SL,1622608319
297,Kologriv,58.8275,44.3178,54.68,53,17,8.86,RU,1622608319
298,Takoradze,4.8845,-1.7554,78.49,86,84,4.25,GH,1622608320
299,Lata,40.1629,-8.3327,55.72,96,55,1.92,PT,1622608320
300,Lebu,-37.6167,-73.65,52.11,91,97,6.08,CL,1622608320
301,Broome,42.2506,-75.833,60.01,79,99,1.16,US,1622608320
302,Faanui,-16.4833,-151.75,79.5,72,100,16.42,PF,1622608321
303,Waipawa,-41.4122,175.5153,56.03,80,96,3.22,NZ,1622608321
304,Bihārīganj,25.7333,86.9833,97.77,41,0,3.06,IN,1622608321
305,Darhan,49.4867,105.9228,51.13,77,100,6.13,MN,1622608321
306,Bisira,8.5196,-81.7115,58.55,87,100,4.14,PA,1622608322
307,Tegul'det,57.3064,88.1667,79.29,34,32,2.8,RU,1622608322
308,Mishelevka,52.8575,103.1719,69.84,45,17,5.82,RU,1622608323
309,Gornyy,55.1153,83.9059,73.94,51,15,4.72,RU,1622608323
310,Monrovia,6.3005,-10.7969,77.59,84,100,2.24,LR,1622608323
311,Strezhevoy,60.7333,77.5889,55.38,38,68,11.16,RU,1622608324
312,La Palma,33.8464,-118.0467,74.43,86,75,4.0,US,1622608324
313,Meulaboh,4.1363,96.1285,83.08,78,100,3.02,ID,1622608059
314,Port-Gentil,-0.7193,8.7815,78.24,78,49,9.86,GA,1622608324
315,Mahajanga,-15.7167,46.3167,71.62,68,20,6.91,MG,1622608324
316,Mayskiy,47.6931,40.1025,62.01,98,100,2.68,RU,1622608325
317,Cullinan,-25.6709,28.5236,39.29,56,0,6.06,ZA,1622608325
318,Hambantota,6.1241,81.1185,88.14,74,40,15.82,LK,1622608236
319,Viedma,-40.8135,-62.9967,47.62,67,0,17.58,AR,1622608325
320,Belmonte,-15.8631,-38.8828,70.3,87,97,1.83,BR,1622608326
321,Atasū,48.6814,71.6433,82.62,35,79,3.6,KZ,1622608326
322,Tehri,30.3833,78.4833,88.34,33,2,4.83,IN,1622608326
323,Kati,12.7441,-8.0726,82.69,47,43,4.03,ML,1622608327
324,Paamiut,61.994,-49.6678,36.46,82,21,6.58,GL,1622608327
325,Tessalit,20.1986,1.0114,89.8,8,15,5.08,ML,1622608328
326,Tshane,-24.0196,21.8684,40.33,52,0,7.16,BW,1622608328
327,Sioux Lookout,50.1001,-91.917,64.78,48,90,4.61,CA,1622608328
328,Bhachāu,23.2833,70.35,91.94,52,5,15.77,IN,1622608328
329,Bereda,43.2686,-7.5406,53.91,99,71,1.07,ES,1622608329
330,Krasnoturansk,54.3186,91.5639,68.79,50,78,9.19,RU,1622608329
331,Akdepe,42.0551,59.3788,91.4,23,0,8.77,TM,1622608329
332,Vikhorevka,56.1201,101.1636,76.59,26,1,6.08,RU,1622608329
333,Santiago del Estero,-27.7951,-64.2615,62.33,59,43,6.78,AR,1622608286
334,Finote Selam,10.7,37.2667,72.19,39,92,2.86,ET,1622608330
335,Bam,29.106,58.357,100.44,5,0,4.07,IR,1622608330
336,Lethem,3.3803,-59.7968,74.62,92,67,6.91,GY,1622608331
337,Bairiki Village,1.3292,172.9752,86.0,79,75,15.61,KI,1622608331
338,Loves Park,42.32,-89.0582,61.75,72,27,1.99,US,1622608137
339,Severnoye,56.3491,78.3619,62.04,53,51,7.47,RU,1622608332
340,Vila Franca do Campo,37.7167,-25.4333,57.61,74,78,7.05,PT,1622608332
341,Lago da Pedra,-4.3333,-45.1667,71.96,94,59,4.09,BR,1622608332
342,Aragats,40.4889,44.3528,65.03,41,0,12.93,AM,1622608332
343,Kodinsk,58.6881,99.1844,77.59,24,20,7.67,RU,1622608333
344,Bambanglipuro,-7.95,110.2833,73.6,70,42,8.08,ID,1622608333
345,Lompoc,34.6391,-120.4579,62.78,100,90,4.81,US,1622608333
346,Mnogovershinnyy,53.9353,139.9242,63.41,54,89,3.6,RU,1622608333
347,Bac Lieu,9.285,105.7244,89.64,61,99,9.26,VN,1622608036
348,Greenville,35.6127,-77.3663,71.98,72,1,3.44,US,1622608334
349,Domoni,-12.2569,44.5319,78.94,72,38,7.61,KM,1622608334
350,Kurisove,46.9695,30.9591,50.45,93,100,14.67,UA,1622608335
351,Camacha,33.0833,-16.3333,62.02,77,40,6.91,PT,1622608335
352,Lüderitz,-26.6481,15.1594,59.49,40,0,9.62,NA,1622608336
353,Punta de Piedra,7.6176,-71.4916,70.83,98,100,0.31,VE,1622608336
354,Safi,32.2994,-9.2372,60.69,82,54,9.17,MA,1622608336
355,Cooma,-36.2333,149.1333,60.57,41,40,6.71,AU,1622608336
356,Martapura,-3.4167,114.85,91.49,58,20,2.84,ID,1622608337
357,Anaconda,46.1285,-112.9423,59.77,60,47,3.42,US,1622608337
358,Pontes e Lacerda,-15.2261,-59.3353,71.28,67,39,2.17,BR,1622608281
359,Tigil',57.8,158.6667,55.58,47,100,12.59,RU,1622608210
360,Qaqortoq,60.7167,-46.0333,36.1,88,43,2.71,GL,1622608337
361,Port Blair,11.6667,92.75,86.4,69,5,5.68,IN,1622608338
362,Kampot,10.6167,104.1833,89.65,60,64,8.59,KH,1622608218
363,Adrar,20.5022,-10.0711,85.95,33,46,8.21,MR,1622608338
364,Buchanan,5.8808,-10.0467,76.96,86,100,2.77,LR,1622608338
365,Balkanabat,39.5108,54.3671,91.36,24,0,4.56,TM,1622608339
366,Touros,-5.1989,-35.4608,74.3,88,0,10.31,BR,1622608339
367,Ankang,32.68,109.0172,89.8,46,38,1.28,CN,1622608340
368,San Miguel de Tucumán,-26.8241,-65.2226,53.6,87,1,3.78,AR,1622608340
369,Kabinda,-6.1333,24.4833,66.76,57,53,3.83,CD,1622608340
370,Roebourne,-20.7833,117.1333,78.44,25,93,18.5,AU,1622608340
371,Veshenskaya,49.6303,41.7334,60.94,85,100,16.02,RU,1622608341
372,Jinhua,29.1078,119.6547,83.28,79,100,1.16,CN,1622608341
373,Estevan,49.1334,-102.9842,63.21,55,1,8.05,CA,1622608341
374,Churapcha,62.0025,132.4325,69.04,35,19,5.48,RU,1622608341
375,Bahía Blanca,-38.7196,-62.2724,48.27,60,51,6.87,AR,1622608342
376,Aksay,47.26,39.87,63.41,94,100,7.0,RU,1622608342
377,Nantucket,41.2835,-70.0995,60.96,93,1,9.22,US,1622608342
378,Solnechnyy,50.7214,136.6319,61.48,65,100,8.86,RU,1622608342
379,Casablanca,33.5928,-7.6192,61.02,78,83,6.91,MA,1622608248
380,Arsen'yev,44.1631,133.2733,73.89,40,78,9.51,RU,1622608343
381,Lyngseidet,69.5763,20.2189,57.2,57,16,8.21,NO,1622608343
382,Zhigansk,66.7697,123.3711,59.31,62,99,1.86,RU,1622608343
383,Saint-Alexandre,44.2278,4.6214,62.28,81,99,0.43,FR,1622608343
384,Beringovskiy,63.05,179.3167,33.22,74,12,10.25,RU,1622608344
385,Denpasar,-8.65,115.2167,85.66,74,20,10.69,ID,1622608325
386,Pierre,44.3683,-100.351,63.05,63,46,1.01,US,1622608280
387,Bilma,18.6853,12.9164,86.43,9,25,8.01,NE,1622608344
388,Khanpur,28.6453,70.6567,101.19,28,0,0.72,PK,1622608344
389,Srednekolymsk,67.45,153.6833,68.65,20,9,5.93,RU,1622608345
390,Iberia,29.9502,-91.7507,77.05,94,100,6.67,US,1622608278
391,Gornopravdinsk,60.05,69.9,58.24,51,23,8.19,RU,1622608345
392,Kieta,-6.2167,155.6333,82.83,77,69,4.32,PG,1622608345
393,Mouzourás,35.5333,24.15,67.44,77,20,8.05,GR,1622608345
394,Luebo,-5.35,21.4167,65.1,54,99,1.79,CD,1622608346
395,City of San Pedro,14.35,121.0167,81.63,83,75,16.87,PH,1622608346
396,Port-Cartier,50.0334,-66.8654,53.82,88,50,7.56,CA,1622608347
397,Joshīmath,30.5667,79.5667,71.96,51,28,6.22,IN,1622608347
398,Nuuk,64.1835,-51.7216,34.41,100,90,9.22,GL,1622608347
399,Soe,-9.8607,124.284,82.49,43,35,8.08,ID,1622608348
400,Ron,15.6667,75.7333,83.68,59,100,2.93,IN,1622608348
401,Esim,4.8699,-2.2405,78.8,84,98,3.58,GH,1622608348
402,Siguiri,11.6667,-9.5,79.99,63,100,4.34,GN,1622608348
403,Winslow,35.0242,-110.6974,77.97,13,1,1.01,US,1622608349
404,Bad Goisern am Hallstättersee,47.6425,13.6161,51.37,100,41,4.38,AT,1622608349
405,Oktyabr'skoye,43.0645,44.7417,66.34,73,40,7.43,RU,1622608349
406,Kavaratti,10.5669,72.642,83.3,78,91,13.6,IN,1622608349
407,Avera,33.194,-82.5271,69.46,88,96,5.41,US,1622608350
408,Fairbanks,64.8378,-147.7164,61.14,77,75,12.66,US,1622608350
409,Santa Isabel Rio Negro,-0.4139,-65.0192,72.39,99,99,2.21,BR,1622608350
410,Riosucio,5.4216,-75.7032,64.83,98,100,1.66,CO,1622608351
411,Cap Malheureux,-19.9842,57.6142,77.47,73,14,8.99,MU,1622608351
412,Ulladulla,-35.35,150.4667,70.7,46,9,2.66,AU,1622608352
413,Haines Junction,60.7522,-137.5108,53.55,47,52,14.97,CA,1622608352
414,Acapulco de Juárez,16.8634,-99.8901,81.19,81,94,5.26,MX,1622608352
415,Hailar,49.2,119.7,61.5,28,28,4.9,CN,1622608353
416,Talnakh,69.4865,88.3972,36.81,86,99,16.49,RU,1622608353
417,Sakakah,29.9697,40.2064,83.77,23,0,12.39,SA,1622608353
418,São Filipe,14.8961,-24.4956,72.61,81,97,8.23,CV,1622608354
419,Pedernales,18.0384,-71.744,79.5,68,100,3.87,DO,1622608354
420,Cocobeach,1.0002,9.5823,78.73,91,100,7.27,GA,1622608355
421,Dubai,25.2582,55.3047,91.22,79,0,9.22,AE,1622608113
422,Cidreira,-30.1811,-50.2056,58.15,70,100,4.85,BR,1622608355
423,Los Llanos de Aridane,28.6585,-17.9182,62.35,89,75,5.32,ES,1622608356
424,Osinovo,55.8809,48.881,59.09,57,93,11.81,RU,1622608356
425,Labuhan,-6.8844,112.2051,85.64,66,83,10.33,ID,1622608281
426,Shingū,33.7333,135.9833,76.19,76,100,5.95,JP,1622608356
427,Irecê,-11.3042,-41.8558,64.8,87,36,7.18,BR,1622608356
428,Narsaq,60.9167,-46.05,35.82,75,34,1.92,GL,1622608357
429,Flin Flon,54.7682,-101.865,56.95,94,98,8.12,CA,1622608357
430,Birao,10.2849,22.7882,74.53,76,97,5.21,CF,1622608357
431,Suez,29.9737,32.5263,71.69,68,0,9.73,EG,1622608357
432,Colares,38.7992,-9.4469,58.44,75,52,3.0,PT,1622608358
433,Petropavlovsk-Kamchatskiy,53.0452,158.6483,52.39,50,71,7.76,RU,1622608271
434,Tuatapere,-46.1333,167.6833,49.82,84,72,1.83,NZ,1622608070
435,Manbij,36.5281,37.9549,65.17,59,0,12.33,SY,1622608358
436,Guerrero Negro,27.9769,-114.0611,61.41,87,0,11.39,MX,1622608358
437,Alice Springs,-23.7,133.8833,74.21,21,40,11.99,AU,1622608359
438,Kommunisticheskiy,61.6789,64.4819,48.61,33,52,12.3,RU,1622608359
439,Logan,41.7355,-111.8344,72.3,48,1,5.75,US,1622608359
440,Hayden,47.766,-116.7866,77.56,76,5,2.51,US,1622608359
441,Río Gallegos,-51.6226,-69.2181,15.85,86,20,4.61,AR,1622608360
442,Norman Wells,65.282,-126.8329,51.84,71,75,5.75,CA,1622608360
443,Adzhamka,48.5424,32.5354,50.81,96,100,16.02,UA,1622608361
444,Barcelos,41.5388,-8.6151,58.91,95,91,3.87,PT,1622608361
445,Yangi Marg`ilon,40.4272,71.7189,85.42,32,0,4.61,UZ,1622608362
446,Gravdal,68.1214,13.5031,53.06,68,20,5.66,NO,1622608362
447,Road Town,18.4167,-64.6167,80.2,71,94,17.65,VG,1622608362
448,La Tuque,47.4334,-72.7824,52.05,93,13,2.3,CA,1622608363
449,São João da Barra,-21.6403,-41.0511,69.13,88,25,2.91,BR,1622608363
450,Carman,49.4992,-98.0016,64.74,77,65,6.91,CA,1622608363
451,Abbeville,50.1,1.8333,60.21,93,42,7.02,FR,1622608363
452,Vanimo,-2.6741,141.3028,79.34,81,100,7.27,PG,1622608364
453,Uyuni,-20.4597,-66.825,35.58,16,67,3.94,BO,1622608364
454,Galveston,29.3669,-94.9669,78.96,88,100,6.93,US,1622608364
455,Varkala,8.7341,76.7067,85.78,71,4,7.36,IN,1622608364
456,Jining,35.405,116.5814,95.61,32,51,11.27,CN,1622608365
457,Martil,35.6166,-5.2752,62.58,82,20,9.22,MA,1622608365
458,Hammerfest,70.6634,23.6821,50.45,76,0,3.44,NO,1622608365
459,Abonnema,4.7084,6.7931,77.29,90,100,2.75,NG,1622608365
460,Sarangani,5.4033,125.4636,83.95,74,90,10.54,PH,1622608366
461,Angoche,-16.2325,39.9086,73.36,76,38,1.43,MZ,1622608366
462,Tautira,-17.7333,-149.15,80.62,67,82,12.44,PF,1622608236
463,Tompa,46.2061,19.5391,52.59,68,27,4.29,HU,1622608366
464,Taltal,-25.4,-70.4833,60.8,80,25,1.77,CL,1622608367
465,Beaverlodge,55.2166,-119.4361,67.35,67,80,5.68,CA,1622608367
466,Tiksi,71.6872,128.8694,39.45,80,100,7.09,RU,1622608367
467,Basco,20.4487,121.9702,84.81,78,48,13.04,PH,1622608368
468,Jinchang,38.4953,102.1739,70.93,9,54,15.17,CN,1622608368
469,Esperanza,19.5847,-70.9849,74.3,85,100,3.0,DO,1622608368
470,Tobol,52.6844,62.5794,69.26,39,0,9.4,KZ,1622608369
471,Necochea,-38.5473,-58.7368,51.96,71,42,14.03,AR,1622608369
472,Erzin,36.9559,36.2,72.0,68,30,6.11,TR,1622608369
473,Northam,51.0333,-4.2167,63.48,82,98,10.09,GB,1622608329
474,Carutapera,-1.195,-46.02,74.84,94,9,5.12,BR,1622608369
475,Lixouri,38.2019,20.4314,67.64,52,94,7.81,GR,1622608370
476,Kaberamaido,1.7389,33.1594,68.18,89,97,3.18,UG,1622608370
477,Muroto-misakicho,33.2833,134.15,75.24,79,100,11.23,JP,1622608370
478,Polewali,-3.4324,119.3435,88.63,57,49,2.71,ID,1622608371
479,Genthin,52.4,12.1667,55.29,75,78,7.7,DE,1622608371
480,Acarí,-15.4311,-74.6158,66.2,76,93,3.62,PE,1622608372
481,Gemeente Wageningen,51.9667,5.6667,61.09,83,90,5.37,NL,1622608372
482,Yinchuan,38.4681,106.2731,78.6,8,42,12.33,CN,1622608372
483,Harindānga,22.0383,88.3214,84.18,64,21,14.7,IN,1622608372
484,Dindori,22.95,81.0833,98.1,26,48,10.38,IN,1622608373
485,Santa Rosa,14.3122,121.1114,82.38,68,99,16.98,PH,1622608373
486,Rørvik,64.8621,11.2373,64.51,42,0,5.75,NO,1622608373
487,Uíge,-7.6087,15.0613,65.62,89,55,2.71,AO,1622608373
488,Rapid City,44.0805,-103.231,66.67,57,1,1.99,US,1622608374
489,North Bend,43.4065,-124.2243,60.93,86,51,1.88,US,1622608264
490,Terråk,65.087,12.3715,66.07,50,28,5.66,NO,1622608374
491,Half Moon Bay,37.4636,-122.4286,67.8,85,90,3.44,US,1622608273
492,Maxixe,-23.8597,35.3472,66.02,94,20,5.75,MZ,1622608374
493,Southbridge,42.0751,-72.0334,61.03,87,97,4.38,US,1622608375
494,Hasaki,35.7333,140.8333,77.29,71,100,11.01,JP,1622608375
495,Horsham,51.064,-0.3272,58.93,63,0,6.17,GB,1622608234
496,Khilok,51.3674,110.4676,44.78,98,100,2.73,RU,1622608375
497,Keningau,5.3378,116.1602,86.45,52,76,2.04,MY,1622608376
498,Guarapari,-20.6667,-40.4975,72.9,91,100,4.38,BR,1622608376
499,Mahon,39.8885,4.2658,64.96,94,20,9.22,ES,1622608376
500,Ourém,39.6417,-8.5919,54.61,90,57,0.56,PT,1622608377
501,Agua Verde,22.9,-106.05,83.03,74,60,6.58,MX,1622608377
502,Isa Khel,36.6702,68.8443,91.45,22,0,3.8,AF,1622608378
503,Mil'kovo,54.7167,158.6167,57.67,47,99,4.88,RU,1622608378
504,Poronaysk,49.2167,143.1167,53.33,79,12,10.67,RU,1622608378
505,La Providencia,28.7167,-111.5833,87.85,54,1,6.87,MX,1622608378
506,Nelson Bay,-32.7167,152.15,72.0,56,67,5.23,AU,1622608379
507,Porbandar,21.6422,69.6093,89.58,66,40,13.8,IN,1622608315
508,Tabou,4.423,-7.3528,78.62,84,59,5.59,CI,1622608379
509,Saraland,30.8207,-88.0706,78.82,85,96,5.97,US,1622608379
510,Tezu,27.9167,96.1667,81.82,83,88,0.54,IN,1622608380
511,San Juan,-31.5375,-68.5364,70.74,46,84,7.38,AR,1622608380
512,Mitsamiouli,-11.3847,43.2844,78.62,70,21,7.56,KM,1622608361
513,Huarmey,-10.0681,-78.1522,64.74,86,75,7.45,PE,1622608381
514,Yangjiang,21.85,111.9667,86.95,68,99,12.71,CN,1622608381
515,Blagoyevo,63.3667,47.9167,47.25,43,15,7.78,RU,1622608382
516,Pūrna,19.1833,77.05,82.29,56,100,4.45,IN,1622608382
517,Okhotsk,59.3833,143.3,42.73,81,100,4.45,RU,1622608382
518,Muros,42.7762,-9.0603,58.98,92,99,3.04,ES,1622608382
519,Tommot,58.9564,126.2925,60.28,61,95,4.29,RU,1622608383
520,Wasilla,61.5814,-149.4394,56.84,52,1,4.0,US,1622608383
521,Pailitas,8.9565,-73.6255,75.4,92,99,0.58,CO,1622608383
522,Nyakabindi,-2.6333,33.9833,62.82,72,66,4.16,TZ,1622608383
523,Luganville,-15.5333,167.1667,76.71,76,98,11.12,VU,1622608384
524,Edissiya,44.0511,44.5408,68.7,71,4,10.07,RU,1622608384
525,Mazatlán,23.2167,-106.4167,82.9,76,75,1.99,MX,1622608384
526,Lázaro Cárdenas,17.9583,-102.2,81.21,81,100,2.75,MX,1622608202
527,Gunnedah,-30.9833,150.25,69.42,55,100,1.01,AU,1622608385
528,Rock Island,41.45,-90.5168,63.14,87,29,3.49,US,1622608151
529,Fengcheng,40.4536,124.0717,70.47,75,100,17.11,CN,1622608386
530,Payson,40.0444,-111.7321,70.99,33,93,3.0,US,1622608386
531,Svilengrad,41.7667,26.2,56.86,82,99,7.11,BG,1622608386
532,Vila Velha,-20.3297,-40.2925,72.95,92,75,2.3,BR,1622608387
533,Gazli,40.1333,63.45,99.52,12,0,10.63,UZ,1622608387
534,Cayenne,4.9333,-52.3333,76.08,90,20,3.62,GF,1622608387
535,Comodoro Rivadavia,-45.8667,-67.5,40.86,81,40,2.3,AR,1622608387
536,Abu Samrah,35.3029,37.1841,69.76,55,11,15.7,SY,1622608388
537,Gbarnga,6.9956,-9.4722,70.66,99,100,1.57,LR,1622608388
538,Santa Marta,11.2408,-74.199,82.98,76,100,7.16,CO,1622608388
539,Chenzhou,25.8,113.0333,86.67,77,79,5.53,CN,1622608388
540,Amarante do Maranhão,-5.5667,-46.7422,70.48,82,3,2.17,BR,1622608389
541,Wad Medani,14.4012,33.5199,92.91,32,1,11.07,SD,1622608389
542,Kapurthala Town,31.3794,75.3847,87.75,27,21,7.4,IN,1622608389
543,Bud,39.447,-86.1758,66.15,84,100,5.88,US,1622608390
544,Fairlie,55.756,-4.8556,53.51,87,92,5.01,GB,1622608390
545,Boa Vista,2.8197,-60.6733,76.98,88,75,1.14,BR,1622608390
546,Porto Torres,40.835,8.3972,66.38,71,100,7.18,IT,1622608391
547,Belfast,54.5833,-5.9333,56.12,83,0,8.05,GB,1622608169
548,Kindu,-2.95,25.95,70.84,87,88,1.19,CD,1622608391
549,Zhongshu,24.5167,103.7667,79.36,53,67,10.56,CN,1622608392
550,Coquimbo,-29.9533,-71.3436,53.33,100,20,5.68,CL,1622608392
551,Gusinoye Ozero,51.1144,106.2614,62.89,52,75,10.89,RU,1622608392
552,Burnie,-41.0667,145.9167,56.12,72,73,2.44,AU,1622608321
553,Shelburne,44.0787,-80.2041,57.67,68,6,6.04,CA,1622608206
554,Kochubey,44.3861,46.5825,76.87,54,26,7.47,RU,1622608393
555,Zyryanka,65.75,150.85,64.49,27,79,11.63,RU,1622608393
556,Trelew,-43.249,-65.3051,40.69,75,3,11.32,AR,1622608393
557,Saldanha,-33.0117,17.9442,48.25,83,0,7.52,ZA,1622608393
558,Tiznit Province,29.5833,-9.5,59.27,73,0,1.5,MA,1622608394
559,Whitehorse,60.7161,-135.0538,59.02,44,40,11.01,CA,1622608320
560,Valera,9.3178,-70.6036,72.66,83,99,3.74,VE,1622608394
561,Chuka,-0.3332,37.6459,61.93,71,83,4.63,KE,1622608394
562,Barra de Tecoanapa,16.5167,-98.75,81.91,78,68,2.39,MX,1622608395
563,Chākuliā,22.4833,86.7167,86.32,40,23,5.97,IN,1622608395
564,Shaoyang,27.2315,111.4525,85.78,69,98,4.27,CN,1622608395
565,Rāzampeta,14.1833,79.1667,91.38,41,6,9.64,IN,1622608396
